[
  {
    "id": 1,
    "name": "Rhynoodle",
    "num": "RH0143",
    "location": {
      "street": "04828 Mcguire Alley",
      "city": "Sacramento",
      "state": "CA",
      "postalCode": 95833,
      "country": "US"
    },
    "street": "04828 Mcguire Alley",
    "city": "Sacramento",
    "state": "CA",
    "postalCode": 95833,
    "country": "US",
    "timezone": "America/Los_Angeles"
  },
  {
    "id": 2,
    "name": "Yodo",
    "num": "YO7612",
    "location": {
      "street": "405 Old Shore Avenue",
      "city": "Merritt",
      "state": "BC",
      "postalCode": "V1K",
      "country": "CA"
    },
    "street": "405 Old Shore Avenue",
    "city": "Merritt",
    "state": "BC",
    "postalCode": "V1K",
    "country": "CA",
    "timezone": "America/Vancouver"
  },
  {
    "id": 3,
    "name": "Omba",
    "num": "OM3054",
    "location": {
      "street": "8 Charing Cross Circle",
      "city": "Niños Heroes",
      "state": "OAX",
      "postalCode": 68145,
      "country": "MX"
    },
    "street": "8 Charing Cross Circle",
    "city": "Niños Heroes",
    "state": "OAX",
    "postalCode": 68145,
    "country": "MX",
    "timezone": "America/Mexico_City"
  },
  {
    "id": 4,
    "name": "Gabcube",
    "num": "GA8966",
    "location": {
      "street": "55 Warbler Street",
      "city": "Colorado Springs",
      "state": "CO",
      "postalCode": 80945,
      "country": "US"
    },
    "street": "55 Warbler Street",
    "city": "Colorado Springs",
    "state": "CO",
    "postalCode": 80945,
    "country": "US",
    "timezone": "America/Denver"
  },
  {
    "id": 5,
    "name": "Voonder",
    "num": "VO3537",
    "location": {
      "street": "4402 Summer Ridge Drive",
      "city": "Maskinongé",
      "state": "QC",
      "postalCode": "T7A",
      "country": "CA"
    },
    "street": "4402 Summer Ridge Drive",
    "city": "Maskinongé",
    "state": "QC",
    "postalCode": "T7A",
    "country": "CA",
    "timezone": "America/Montreal"
  },
  {
    "id": 6,
    "name": "Chatterpoint",
    "num": "CH6399",
    "street": "8 Talisman Lane",
    "city": "La Aurora",
    "state": "JAL",
    "postalCode": 48338,
    "country": "MX",
    "timezone": "America/Mexico_City"
  },
  {
    "id": 7,
    "name": "Topicshots",
    "num": "TO7272",
    "street": "66 Grim Place",
    "city": "Saguenay",
    "state": "QC",
    "postalCode": "G7K",
    "country": "CA",
    "timezone": "America/Montreal"
  },
  {
    "id": 8,
    "name": "Quatz",
    "num": "QU9909",
    "street": "37922 Glacier Hill Crossing",
    "city": "Portland",
    "state": "OR",
    "postalCode": 97211,
    "country": "US",
    "timezone": "America/Los_Angeles"
  },
  {
    "id": 9,
    "name": "Devbug",
    "num": "DE3792",
    "street": "5894 Ronald Regan Lane",
    "city": "San Rafael",
    "state": "SLP",
    "postalCode": 79783,
    "country": "MX",
    "timezone": "America/Mexico_City"
  },
  {
    "id": 10,
    "name": "Wikizz",
    "num": "WI4195",
    "street": "7 Lakewood Terrace",
    "city": "Las Vegas",
    "state": "NV",
    "postalCode": 89178,
    "country": "US",
    "timezone": "America/Los_Angeles"
  },
  {
    "id": 11,
    "name": "Yata",
    "num": "YA5938",
    "street": "054 Packers Alley",
    "city": "Oromocto",
    "state": "NB",
    "postalCode": "E2V",
    "country": "CA",
    "timezone": "America/Moncton"
  },
  {
    "id": 12,
    "name": "Myworks",
    "num": "MY6034",
    "street": "3 Daystar Street",
    "city": "Omaha",
    "state": "NE",
    "postalCode": 68144,
    "country": "US",
    "timezone": "America/Chicago"
  },
  {
    "id": 13,
    "name": "Photobug",
    "num": "PH2853",
    "street": "907 Moose Avenue",
    "city": "Dayton",
    "state": "OH",
    "postalCode": 45426,
    "country": "US",
    "timezone": "America/New_York"
  },
  {
    "id": 14,
    "name": "Skimia",
    "num": "SK6207",
    "street": "8 Buhler Plaza",
    "city": "Harrisburg",
    "state": "PA",
    "postalCode": 17126,
    "country": "US",
    "timezone": "America/New_York"
  },
  {
    "id": 15,
    "name": "Rhybox",
    "num": "RH8781",
    "street": "9283 Forest Run Hill",
    "city": "Pasadena",
    "state": "NL",
    "postalCode": "B2J",
    "country": "CA",
    "timezone": "America/St_Johns"
  },
  {
    "id": 16,
    "name": "Skyba",
    "num": "SK1734",
    "street": "5 Pearson Road",
    "city": "Oklahoma City",
    "state": "OK",
    "postalCode": 73142,
    "country": "US",
    "timezone": "America/Chicago"
  },
  {
    "id": 17,
    "name": "Trilia",
    "num": "TR2432",
    "street": "45 Pine View Drive",
    "city": "Peace River",
    "state": "AB",
    "postalCode": "T8S",
    "country": "CA",
    "timezone": "America/Edmonton"
  },
  {
    "id": 18,
    "name": "Riffpedia",
    "num": "RI0069",
    "street": "1483 Bartelt Plaza",
    "city": "San Agustin",
    "state": "GUA",
    "postalCode": 36800,
    "country": "MX",
    "timezone": "America/Mexico_City"
  },
  {
    "id": 19,
    "name": "Innotype",
    "num": "IN5762",
    "street": "3822 Lyons Lane",
    "city": "Grand Rapids",
    "state": "MI",
    "postalCode": 49560,
    "country": "US",
    "timezone": "America/Detroit"
  },
  {
    "id": 20,
    "name": "Tavu",
    "num": "TA8377",
    "street": "5266 Crescent Oaks Circle",
    "city": "El Refugio",
    "state": "DUR",
    "postalCode": 35488,
    "country": "MX",
    "timezone": "America/Chihuahua"
  }
]
